[
    {
        "name": "Media naranja brasileiro",
        "address": "Calle Schell 130, Miraflores 15074, Perú",
        "locations":{
            "lat": -0.9 ,
            "lon": 1.6
        },
        "types": "food brasileña",
        "district":"Miraflores" ,
        "photo":"https://media-cdn.tripadvisor.com/media/photo-s/06/10/37/41/media-naranja-brasileiro.jpg",
        "photoMap" : "https://fotos.subefotos.com/e926a496f43bad552eb5c5642c717bb3o.jpg",
        "horarios": "11:00 pm - 6:00pm"
    },
    {
        "name": "Brasuca",
        "address": "Av La Paz 642 - 2do piso - Miraflores, Av. la Paz 642, Miraflores 15074, Perú",
        "types": "food brasileña",
        "district":"Miraflores" ,
        "photo":"https://saborgourmet.com/wp-content/uploads/comidas-tipicas-de-brasil.jpg",
        "photoMap" : "https://fotos.subefotos.com/e926a496f43bad552eb5c5642c717bb3o.jpg",
        "horarios": "1:00 pm - 3:00pm"
    },
    {
        "name": "Sóngoro Cosongo",
        "address": "Jirón Ayacucho 281, Barranco 15063, Perú",
        "types": "food brasileña",
        "district":"Miraflores" ,
        "horarios": "1:00 pm - 3:00pm",
        "photo":"https://igx.4sqi.net/img/general/200x200/422755_u7624-psWh4Xr5g6uouSkbxvwQLwmI9qR9Qvsq6wd3M.jpg",
        "photoMap" : "https://fotos.subefotos.com/e926a496f43bad552eb5c5642c717bb3o.jpg"
    },
    {
        "name": "SaoPablo food",
        "address": "Calle Schell 130, Miraflores 15074, Perú",
        "types": "food brasileña",
        "district":"Miraflores" ,
        "horarios": "1:00 pm - 3:00pm",
        "photo":"https://media-cdn.tripadvisor.com/media/photo-s/0e/29/c6/a4/vista-interior.jpg",
        "photoMap" : "https://fotos.subefotos.com/e926a496f43bad552eb5c5642c717bb3o.jpg"
    },
    {
        "name": "Tacos Y Tortas El Mexicano",
        "address": "Calle Schell 130, Miraflores 15074, Perú",
        "locations":{
            "lat": -0.9 ,
            "lon": 1.6
        },
        "types": "food mexicana",
        "district":"Miraflores" ,
        "horarios": "1:00 pm - 3:00pm",
        "photo":"https://images-yasabe.netdna-ssl.com/r/xh/640x480/8423571.jpg",
        "photoMap" : "https://fotos.subefotos.com/e926a496f43bad552eb5c5642c717bb3o.jpg",
        "open": false
    },
    {
        "name": "Mr. Taco",
        "address": "Av La Paz 642 - 2do piso - Miraflores, Av. la Paz 642, Miraflores 15074, Perú",
        "types": "food mexicana",
        "district":"Miraflores" ,
        "horarios": "1:00 pm - 3:00pm",
        "photo":"http://comiendotebarcelona.com/wp-content/uploads/2016/02/rosanegra.jpg",
        "photoMap" : "https://fotos.subefotos.com/e926a496f43bad552eb5c5642c717bb3o.jpg"
    },
    {
        "name": "Chili's",
        "address": "Jirón Ayacucho 281, Barranco 15063, Perú",
        "types": "food mexicana",
        "district":"Miraflores" ,
        "horarios": "1:00 pm - 3:00pm",
        "photo":"https://media.nbcdfw.com/images/652*367/chilisGettyImages-956936028.jpg",
        "photoMap" : "https://fotos.subefotos.com/e926a496f43bad552eb5c5642c717bb3o.jpg"
    },
    {
        "name": "El chacho",
        "address": "Calle Schell 130, Miraflores 15074, Perú",
        "types": "food mexicana",
        "district":"Miraflores" ,
        "horarios": "1:00 pm - 3:00pm",
        "photo":"https://media-cdn.tripadvisor.com/media/photo-s/10/46/11/45/photo5jpg.jpg",
        "photoMap" : "https://fotos.subefotos.com/e926a496f43bad552eb5c5642c717bb3o.jpg"
    },
    {
        "name": "Tradiciones de mi tierra",
        "address": "Calle Schell 130, Miraflores 15074, Perú",
        "locations":{
            "lat": -0.9 ,
            "lon": 1.6
        },
        "types": "food peruana",
        "district":"Miraflores" ,
        "horarios": "1:00 pm - 3:00pm",
        "photo":"https://img.elcomercio.pe/files/ec_article_multimedia_gallery/uploads/2017/03/29/58dc61bb637f6.jpeg",
        "photoMap" : "https://fotos.subefotos.com/e926a496f43bad552eb5c5642c717bb3o.jpg",
        "open": false
    },
    {
        "name": "Manos Criollas Restaurant",
        "address": "Av La Paz 642 - 2do piso - Miraflores, Av. la Paz 642, Miraflores 15074, Perú",
        "types": "food peruana",
        "district":"Miraflores" ,
        "horarios": "1:00 pm - 3:00pm",
        "photo":"https://prod.media.larepublica.pe/720x405/larepublica/imagen/2017/08/13/noticia-diadelamadre.jpg",
        "photoMap" : "https://fotos.subefotos.com/e926a496f43bad552eb5c5642c717bb3o.jpg"
    },
    {
        "name": "PERÚ GOURMET Restaurante - Bar",
        "address": "Jirón Ayacucho 281, Barranco 15063, Perú",
        "types": "food peruana",
        "district":"Miraflores" ,
        "horarios": "1:00 pm - 3:00pm",
        "photo":"http://contenidos.civico.com/wp-content/uploads/2016/03/14-inkas2-cebiches.jpg",
        "photoMap" : "https://fotos.subefotos.com/e926a496f43bad552eb5c5642c717bb3o.jpg"
    },
    {
        "name": "Restaurante “Doña fe” Gastronomía Peruana",
        "address": "Calle Schell 130, Miraflores 15074, Perú",
        "types": "food peruana",
        "district":"Miraflores" ,
        "horarios": "1:00 pm - 3:00pm",
        "photo":"https://portal.andina.pe/EDPfotografia3/Thumbnail/2018/03/21/000490781W.jpg",
        "photoMap" : "https://fotos.subefotos.com/e926a496f43bad552eb5c5642c717bb3o.jpg"
    }

]